,category,latitude,location,longitude,name
0,Food,48.861583,L1,2.352296,A l‘ancienne
1,Food,48.86162641525465,L1,2.352667969533703,Lapeyronie
2,Food,48.860915,L1,2.35464,Huré
3,Food,48.862301498091426,L1,2.3511419513118725,Anticafé Beaubourg
4,Food,48.860017542928325,L1,2.3520585894584656,Georges
5,Food,48.86182051502064,L1,2.3516183533382673,La French Guinguette
6,Food,48.8628,L1,2.35237,Trois Fois plus de Piment
7,Food,48.86101666525852,L1,2.3511868715286255,Bistrot du Centre
8,Food,48.86194095031236,L1,2.3508301377296448,Hall 1900
9,Food,48.86134713921776,L1,2.3518477701634652,Le Cirque Café Restaurant
10,Food,48.86176449807317,L1,2.353767802936569,Chez Cay
11,Food,48.861760123196625,L1,2.3513647319524527,Chouchou
12,Food,48.8619,L1,2.35213,Cinq Fois Plus
13,Food,48.862190369740006,L1,2.351964523258019,Café La Fusée
14,Food,48.8618906401098,L1,2.35288504511118,chacha & compagnie
15,Food,48.86116552507142,L1,2.3534800126227657,La Station Rambuteau
16,Food,48.861816772069645,L1,2.3510582282795456,Man'ouché
17,Food,48.86136285049033,L1,2.35337496278751,Flunch
18,Food,48.861772962824354,L1,2.3512651052071347,Le Petit Marcel
19,Food,48.86162615661756,L1,2.351629831158275,Le Cavalier Bleu
20,Food,48.86172091008543,L1,2.3514014997634534,Glace Bachir
21,Food,48.86024070312239,L1,2.350421785021407,Starbucks Coffee
22,Food,48.86212515693982,L1,2.3495961648616857,Starbucks Coffee
23,Food,48.86107230096635,L1,2.3538057645727637,François Pralus
24,Food,48.86188,L1,2.3507671,Vertus - Le Bar à Jus
25,Food,48.860852,L1,2.354762,Obao
26,Food,48.86144872744975,L1,2.3542004416884543,Le Hangar
27,Food,48.86093687717986,L1,2.3543262962030815,Le Potager du Marais
28,Food,48.860444,L1,2.3522,Café Mezzanine
29,Food,48.86138103022756,L1,2.349562793970108,Le Paris-Halles
30,Food,48.86089347076943,L1,2.354413496784841,Le Ruisseau Burger Joint
31,Food,48.860826455756644,L1,2.354666493379683,Berko Original
32,Food,48.862525,L1,2.353949,La Récolte
33,Food,48.862131,L1,2.349845,Nabab Kebab (Châtelet)
34,Food,48.86052669403869,L1,2.354600841926289,"Pain, Vin, Fromage"
35,Food,48.86215150260297,L1,2.349504632693119,IT Trattoria
36,Food,48.86329383242844,L1,2.350973169572531,Le Spicy Home Paris
37,Food,48.86002667471822,L1,2.351937296138591,Georges Abstraction Surface Air
38,Food,48.85959171436225,L1,2.3520411550998688,Brasserie Paris Beaubourg
39,Food,48.86001497962737,L1,2.350706347704655,Al Solito Posto
40,Food,48.86329485253772,L1,2.350919496000866,Indiana Café – Sébastopol
41,Food,48.86130349978107,L1,2.3505544933970333,Dans Le Noir
42,Food,48.860571269892425,L1,2.351669553240942,Amorino
43,Food,48.86086856370866,L1,2.3545044214436213,Le Bouledogue
44,Food,48.86000993297019,L1,2.3509548604488373,Café Beaubourg
45,Food,48.860924,L1,2.3547058,Burger Joint
46,Food,48.86294673006787,L1,2.35318236557205,Ambassade d'Auvergne
47,Food,48.86359971183159,L1,2.3531967155876217,Auberge Nicolas Flamel
48,Food,48.85993579774543,L1,2.3545213337868,Comptoir Gourmet
49,Food,48.86001230089146,L1,2.349695457851058,Bistrot Beaubourg
0,Shop & Service,48.86159042229316,L1,2.3521499307230616,Leroy Merlin
1,Shop & Service,48.860465756391825,L1,2.3521900177001953,Librairie Flammarion
2,Shop & Service,48.860705743053124,L1,2.3523616790771484,Boutique du Centre Pompidou
3,Shop & Service,48.86162641525465,L1,2.352667969533703,Lapeyronie
4,Shop & Service,48.8612253754192,L1,2.352896990107382,Le Comptoir de Mathilde
5,Shop & Service,48.861393454503656,L1,2.351390216499567,Mad Vintage
6,Shop & Service,48.86210026944108,L1,2.3500409053550455,Flying Tiger Copenhagen
7,Shop & Service,48.86048869634302,L1,2.3501086235046387,Citadium Beaubourg
8,Shop & Service,48.86107230096635,L1,2.3538057645727637,François Pralus
9,Shop & Service,48.86178942087323,L1,2.353677624173471,Picard
10,Shop & Service,48.862830280663374,L1,2.352573573589325,G20
11,Shop & Service,48.8610483010459,L1,2.3543798215954124,Boucherie Provins
12,Shop & Service,48.86120845954331,L1,2.3538462817668915,Nicolas
13,Shop & Service,48.86291073317901,L1,2.3529033143979357,Sous Le Parasol
14,Shop & Service,48.86256120174508,L1,2.3512086296978763,Le Colonel Moutarde
15,Shop & Service,48.861874,L1,2.350325,Hippy Market
16,Shop & Service,48.86307089026673,L1,2.3526874414856436,A'Rhûm
17,Shop & Service,48.861937,L1,2.353993,Saucette
18,Shop & Service,48.8608912322107,L1,2.3544975543273874,Les cahiers de Colette
19,Shop & Service,48.861692,L1,2.351125,La Super Marquette
20,Shop & Service,48.862078,L1,2.350278,HSBC
21,Shop & Service,48.86069931656506,L1,2.350203745517433,Emmaüs Boutique
22,Shop & Service,48.86073062396809,L1,2.353421151638031,Carrefour City
23,Shop & Service,48.8620254,L1,2.3496854,Carrefour Bon app
24,Shop & Service,48.86303461,L1,2.35363457,La Vie Claire
25,Shop & Service,48.860321698272756,L1,2.352907144214188,Bio c' Bon
26,Shop & Service,48.862131,L1,2.349845,Nabab Kebab (Châtelet)
27,Shop & Service,48.862525,L1,2.353949,La Récolte
28,Shop & Service,48.861556,L1,2.349901,B-Zen
29,Shop & Service,48.860106,L1,2.354421,Gilda
30,Shop & Service,48.861536864435486,L1,2.3492449522018433,Mad Vintage
31,Shop & Service,48.86100224435678,L1,2.354242472683329,Franprix
32,Shop & Service,48.860865,L1,2.354971,Concept Store Maurice
33,Shop & Service,48.861167,L1,2.349452,Mi Store (by Xiaomi 小米)
34,Shop & Service,48.86106822154757,L1,2.350510874028137,Cave à Bulles
35,Shop & Service,48.86277494928874,L1,2.3505572523752027,Au reparateur de Bicyclettes
36,Shop & Service,48.862285,L1,2.350038,Jonak Stock
37,Shop & Service,48.861529,L1,2.349665,Kust
38,Shop & Service,48.85988932429481,L1,2.3506451460566087,Bobart'
39,Shop & Service,48.86247634887695,L1,2.354621410369873,Darrigol & Gagnez
40,Shop & Service,48.86232335090376,L1,2.352098847603267,Triple Stars Tatoo
41,Shop & Service,48.86251,L1,2.354122,Schläppi Showroom
42,Shop & Service,48.86027535440196,L1,2.3500576615333557,Vans
43,Shop & Service,48.86244254044476,L1,2.3521301440563187,Super Heros
44,Shop & Service,48.86126653093244,L1,2.3512887954711914,Monop'
45,Shop & Service,48.85993579774543,L1,2.3545213337868,Comptoir Gourmet
46,Shop & Service,48.85939024435134,L1,2.352924792601702,Abraxas Beaubourg
47,Shop & Service,48.86355456431634,L1,2.350890893994081,Persona Grata
48,Shop & Service,48.859825,L1,2.3544168,Mille Creations
49,Shop & Service,48.863577,L1,2.350793,Office DEPOT
0,Bus Stop,48.863260709022036,L1,2.3516529860789617,Arrêt Sébastopol – Étienne Marcel [29]
1,Bus Stop,48.86282227864511,L1,2.3545246411534486,"Arrêt Grenier Saint-Lazare - Quartier de l'Horloge [29,38,47,75,N12,N13,N14,N23]"
2,Bus Stop,48.860358767868966,L1,2.352556081626707,"Arrêt Centre Georges Pompidou [38,47,75,N12,N13,N14,N23]"
0,Metro Station,48.86129798946961,L1,2.3531059679887547,Métro Rambuteau [11]
0,Nightlife Spot,48.862190369740006,L1,2.351964523258019,Café La Fusée
1,Nightlife Spot,48.8615806790435,L1,2.3506674873934643,Le Barberousse
2,Nightlife Spot,48.86204211884994,L1,2.3538848815673097,Le Trente Neuf
3,Nightlife Spot,48.861336,L1,2.3539238,Poupée
4,Nightlife Spot,48.86133022969317,L1,2.3506561816343217,The Brooklyn
5,Nightlife Spot,48.860017542928325,L1,2.3520585894584656,Georges
6,Nightlife Spot,48.862198,L1,2.351683,Everest
7,Nightlife Spot,48.861843184609775,L1,2.350997435989082,Wine Touch
8,Nightlife Spot,48.86263758334039,L1,2.352193627560694,Le Carlie
9,Nightlife Spot,48.862189001987815,L1,2.351950608072152,Jojo
10,Nightlife Spot,48.862641866918665,L1,2.3521632622418487,le Bar Ouf
11,Nightlife Spot,48.86259736233696,L1,2.3519405722618103,Workshop Paris
12,Nightlife Spot,48.86198594657277,L1,2.351725995540619,Le 153
13,Nightlife Spot,48.8625118058656,L1,2.352159865327098,La Mutinerie
14,Nightlife Spot,48.8621645385461,L1,2.351077888889044,L'Art Brut Bistrot
15,Nightlife Spot,48.861594,L1,2.350888,Demory Paris
16,Nightlife Spot,48.86027814220313,L1,2.3511634430663992,Le Parvis
17,Nightlife Spot,48.86329485253772,L1,2.350919496000866,Indiana Café – Sébastopol
18,Nightlife Spot,48.860566,L1,2.354428,Improvi'bar
19,Nightlife Spot,48.86106,L1,2.354165,Le Rio Del Vin
20,Nightlife Spot,48.86009114492159,L1,2.3532573845897553,Krash Bar
21,Nightlife Spot,48.859911314606286,L1,2.3519408634595473,Le Georges
22,Nightlife Spot,48.86160534143004,L1,2.351538827804342,Serda
23,Nightlife Spot,48.860806325355725,L1,2.3502856492996216,Dr. Feelgood
24,Nightlife Spot,48.86018295035678,L1,2.3504868734814606,Le Komptoir
25,Nightlife Spot,48.859731160821745,L1,2.351746459776075,Les Fontaines
26,Nightlife Spot,48.86329383242844,L1,2.350973169572531,Le Spicy Home Paris
27,Nightlife Spot,48.86262133938911,L1,2.3527094257395302,Snaxx
28,Nightlife Spot,48.861346,L1,2.350735,Barberousse
29,Nightlife Spot,48.86086856370866,L1,2.3545044214436213,Le Bouledogue
30,Nightlife Spot,48.86139257914309,L1,2.3536782558364346,Au Bienheureux
31,Nightlife Spot,48.86233339395784,L1,2.353003684276841,Massage Cafe
32,Nightlife Spot,48.863364,L1,2.351714,Le Dépôt
33,Nightlife Spot,48.861434,L1,2.350237,Le 47
34,Nightlife Spot,48.85988932429481,L1,2.3506451460566087,Bobart'
35,Nightlife Spot,48.862171,L1,2.35298,Blue Square
36,Nightlife Spot,48.86221197223833,L1,2.3527153118904347,Bistrot de l'Horloge
37,Nightlife Spot,48.86337439126657,L1,2.3513823824953435,Addikt Club
38,Nightlife Spot,48.86204045737591,L1,2.3538636316930064,Le Bistrot Beaubourg
39,Nightlife Spot,48.85960853164644,L1,2.351606523698617,Le Brise Miche
40,Nightlife Spot,48.861646,L1,2.350081,Windows café
41,Nightlife Spot,48.8605770867804,L1,2.3503469379651296,Flaq
42,Nightlife Spot,48.86310185356445,L1,2.351571069551551,L'énigme
43,Nightlife Spot,48.863129,L1,2.351301,Sofitel Mybed
44,Nightlife Spot,48.859767,L1,2.352185,"""La Galerie"" (futur bar)"
45,Nightlife Spot,48.862149936528674,L1,2.3492080062513376,Private
46,Nightlife Spot,48.859490402143905,L1,2.352668737349046,Who's
47,Nightlife Spot,48.860121,L1,2.349809,Le Bar duu Bistrot Beaubourg
48,Nightlife Spot,48.85993579774543,L1,2.3545213337868,Comptoir Gourmet
49,Nightlife Spot,48.860025542143056,L1,2.3497350130576615,La Comédie
0,Arts & Entertainment,48.86145207327991,L1,2.3524487463806074,MK2 Beaubourg
1,Arts & Entertainment,48.860444581042955,L1,2.3524904251098633,Centre Pompidou – Musée National d'Art Moderne
2,Arts & Entertainment,48.8613136905913,L1,2.3521934192816403,Atelier Brancusi
3,Arts & Entertainment,48.86176531423173,L1,2.3509580412989792,Centre Culturel de Serbie
4,Arts & Entertainment,48.862954,L1,2.353082,Galerie Daniel Templon
5,Arts & Entertainment,48.860442,L1,2.352137,퐁피두 미술과ㄴ
6,Arts & Entertainment,48.8612472,L1,2.3507709,Galerie Metanoia
7,Arts & Entertainment,48.860665157154486,L1,2.350434511899948,Sergeant Paper
8,Arts & Entertainment,48.859865573453256,L1,2.35264484453933,Essaïon Théâtre
9,Arts & Entertainment,48.86110895255428,L1,2.3506054724555674,Centre Wallonie-Bruxelles
10,Arts & Entertainment,48.86206550912133,L1,2.353824569262506,Galerie Daniel Templon
11,Arts & Entertainment,48.860566,L1,2.354428,Improvi'bar
12,Arts & Entertainment,48.862222160176245,L1,2.3509794253692915,Let's Pik
13,Arts & Entertainment,48.861939,L1,2.350763,New Era introducing
14,Arts & Entertainment,48.859618273518485,L1,2.3515663068192008,IRCAM
15,Arts & Entertainment,48.86039367199744,L1,2.350224012283556,Galerie Linz
16,Arts & Entertainment,48.8620699892781,L1,2.3512436562092502,Galerie Champaka
17,Arts & Entertainment,48.862184,L1,2.351129,Galerie Art Present
18,Arts & Entertainment,48.862065,L1,2.350976,Galerie Dohyang Lee
19,Arts & Entertainment,48.861906,L1,2.350972,Space Invader - Pixel Art
20,Arts & Entertainment,48.862682060035624,L1,2.35382080078125,Galerie Laurent Godin
21,Arts & Entertainment,48.86261324316637,L1,2.3536933958530426,Galerie W
22,Arts & Entertainment,48.859853,L1,2.353586,Pommier Electric Studio
23,Arts & Entertainment,48.86158983297656,L1,2.3532989057946705,Galerie Alexandre Cadain
24,Arts & Entertainment,48.86104787249156,L1,2.3514201667231984,Galerie Koulinsky
25,Arts & Entertainment,48.86183314684022,L1,2.351249161827484,Galerie ADC
26,Arts & Entertainment,48.862711,L1,2.351383,Galerie Frankulyan
27,Arts & Entertainment,48.86102,L1,2.350558,H3 Concept Gallery
28,Arts & Entertainment,48.862473,L1,2.354021,Centre culturel ecole Ti Art
29,Arts & Entertainment,48.86226,L1,2.3499825,Top Sexy
30,Arts & Entertainment,48.860493990176394,L1,2.3521685600280757,Galerie Sud - CNAC
31,Arts & Entertainment,48.862998,L1,2.351611,Gallerie Snoop
32,Arts & Entertainment,48.86038442399212,L1,2.350916008789383,Orel Art
33,Arts & Entertainment,48.860835617772224,L1,2.350485205388395,Galerie Catherine Putman
34,Arts & Entertainment,48.86060574481323,L1,2.3503344412500073,Galerie Flaq
35,Arts & Entertainment,48.86288238738256,L1,2.3538124426849776,Marais Ouest
36,Arts & Entertainment,48.86005567004353,L1,2.351854007288559,André Cadere
37,Arts & Entertainment,48.86265477917466,L1,2.3497588451103364,Space Invader
38,Arts & Entertainment,48.863026,L1,2.353616,Galerie Cortex Athletico
39,Arts & Entertainment,48.860976,L1,2.352502,Pompi relax
40,Arts & Entertainment,48.861057,L1,2.35247,kollektsia
41,Arts & Entertainment,48.85941834429424,L1,2.3525921411782402,Galerie Bernard Ceysson
42,Arts & Entertainment,48.860174,L1,2.351267,The Big Hands
43,Arts & Entertainment,48.860119,L1,2.351599,Collection Nouveaux Media
44,Arts & Entertainment,48.863596,L1,2.353162,Galerie Pascaline Mulliez
45,Arts & Entertainment,48.86002330080282,L1,2.3544097968707396,Giverny
46,Arts & Entertainment,48.86006125654299,L1,2.35064926738689,Jammin Club
47,Arts & Entertainment,48.8594314325586,L1,2.352653941939451,L'Imprimerie
48,Arts & Entertainment,48.85922345410303,L1,2.3529839515686035,Galerie L'Imprimerie
49,Arts & Entertainment,48.86065,L1,2.35174,Cabine Inside Out
0,Food,48.86947032088691,L2,2.307762506469195,Bistro des Champs-Elysées
1,Food,48.869674721253716,L2,2.307828085264563,Le Bistro 25
2,Food,48.8696193404636,L2,2.3067989945411678,Pizza Pino
3,Food,48.86967817811621,L2,2.306657981562072,L'Entrecôte de Paris
4,Food,48.87014631273534,L2,2.3067820189968624,Pomme de Pain
5,Food,48.87003095676322,L2,2.306532490715121,Café di Roma
6,Food,48.870120127896534,L2,2.305990517449024,L'Alsace
7,Food,48.86965787619578,L2,2.3055337122697197,Vapiano
8,Food,48.870007868538636,L2,2.3055893182754517,Five Guys
9,Food,48.86912194863754,L2,2.3045795072126998,Gran Caffé Convivium
10,Food,48.87008219592311,L2,2.310124105310377,Le Carré Élysée
11,Food,48.86962282984994,L2,2.3054199753678604,La Maison de l'Aubrac
12,Food,48.869166834139406,L2,2.3064881125875316,Le Marignan
13,Food,48.87101745385226,L2,2.3064537459697445,Burger King
14,Food,48.871048,L2,2.309406,Sakari
15,Food,48.869900227172224,L2,2.305714770364385,Brasserie Alsace
16,Food,48.86967184115084,L2,2.3055391659503166,Pub Élysée
17,Food,48.870767253914615,L2,2.306377802187729,Open Mind Cafe
18,Food,48.868668,L2,2.306459,Limon
19,Food,48.8707467798823,L2,2.3065735888534697,Le 68 Guy Martin
20,Food,48.87083055431881,L2,2.3085654927348167,Flam's
21,Food,48.87067059890924,L2,2.305755759383262,Café Renault
22,Food,48.86875413015199,L2,2.3049907081235093,Le Confidentiel
23,Food,48.871132013199954,L2,2.3083059438731004,Traiteur Panda
24,Food,48.87071123721354,L2,2.3095895472140637,El Sol - Comptoir Espagnol
25,Food,48.871308789453145,L2,2.307826489296266,Hoki
26,Food,48.869364010951564,L2,2.30491032064531,Santoor
27,Food,48.870986239804736,L2,2.3090188110938406,Le Boudoir
28,Food,48.870503228112064,L2,2.3100730212439364,Domani
29,Food,48.87042666286805,L2,2.310114423846978,Paul
30,Food,48.870346804783125,L2,2.3101433175538912,Hippopotamus
31,Food,48.86987025485287,L2,2.304532527923584,Le Pain Quotidien
32,Food,48.87033882494138,L2,2.305640016830931,L'Atelier Renault Café
33,Food,48.86881935570679,L2,2.308619778308503,Caffè Artcurial
34,Food,48.87097380613609,L2,2.308812509527149,L'Angle
35,Food,48.87105762765223,L2,2.3084302097433316,Bagel & Co
36,Food,48.868837,L2,2.30497,Le Confidential
37,Food,48.868244220406005,L2,2.3062983865602393,Merci Jérôme
38,Food,48.87126934384914,L2,2.306975258189092,Matsuri Boétie
39,Food,48.87076695825851,L2,2.3060014249777505,Le Mont Liban
40,Food,48.87116186011451,L2,2.3082088019405673,L'O à la Bouche
41,Food,48.87108526450895,L2,2.309264206838793,Taisho Ken
42,Food,48.869766,L2,2.3088653,Nostrum
43,Food,48.87143,L2,2.307502,Morny
44,Food,48.87142698676081,L2,2.307130306793727,Le Monte Carlo
45,Food,48.870659048025296,L2,2.3101811201939086,Le Ponthieu Café
46,Food,48.87015341618474,L2,2.306827191560553,L'Aubrac
47,Food,48.87010677065354,L2,2.304389813531551,Le Pichet de Paris
48,Food,48.87043710787791,L2,2.310390424614638,SUBWAY
49,Food,48.869928557502774,L2,2.3041497120545498,Kaïten
0,Shop & Service,48.86976375232966,L2,2.307614230934917,Boutique officielle du PSG
1,Shop & Service,48.86924,L2,2.307876,Abercrombie & Fitch
2,Shop & Service,48.87001635193986,L2,2.3073905265014356,Zara
3,Shop & Service,48.86771560866895,L2,2.3075711676384163,CHANEL Boutique
4,Shop & Service,48.870076711765236,L2,2.3071357682771,Disney Store
5,Shop & Service,48.868251501356546,L2,2.309490591287613,Gucci
6,Shop & Service,48.87111354,L2,2.30682939,Monoprix
7,Shop & Service,48.86971257859467,L2,2.309157504299151,adidas Store
8,Shop & Service,48.870078439512724,L2,2.305283546447754,L'Atelier Renault
9,Shop & Service,48.869997,L2,2.307129,Maje
10,Shop & Service,48.870077,L2,2.30799,Gap
11,Shop & Service,48.86996518545486,L2,2.307767086480162,Zara Home
12,Shop & Service,48.87074590559107,L2,2.305823949618415,Pharmacie Anglaise
13,Shop & Service,48.869742048041815,L2,2.3076977496284505,Paris Saint-Germain
14,Shop & Service,48.86798930689829,L2,2.308023886946504,Yves Saint Laurent
15,Shop & Service,48.870081788053724,L2,2.306062989162138,Agence BNP Paribas
16,Shop & Service,48.86848370701226,L2,2.3081144957008064,Balenciaga
17,Shop & Service,48.870801,L2,2.305653,Tiffany & Co
18,Shop & Service,48.86867258377579,L2,2.309016291986066,Artcurial
19,Shop & Service,48.869662,L2,2.305895,coiff1rst
20,Shop & Service,48.868078338921684,L2,2.308161684521944,Céline
21,Shop & Service,48.86786689244969,L2,2.307879217826012,Fendi
22,Shop & Service,48.87101878824294,L2,2.3061472177505493,La Grande Récré
23,Shop & Service,48.869416189228055,L2,2.3049809380626685,Franprix
24,Shop & Service,48.86962439436569,L2,2.3100030826676248,Zadig & Voltaire
25,Shop & Service,48.871,L2,2.308718,NV Coiffure
26,Shop & Service,48.871173,L2,2.308122,A2Pas
27,Shop & Service,48.86817322765391,L2,2.3084899883556607,Montaigne Market
28,Shop & Service,48.869944,L2,2.31028,Le 4 Casino
29,Shop & Service,48.86792245132589,L2,2.3063966631889343,Ewenlaw
30,Shop & Service,48.87029005607121,L2,2.305647692357374,JAQK Champs-Élysées
31,Shop & Service,48.869268,L2,2.304574,Vilebrequin
32,Shop & Service,48.86769403415524,L2,2.307168721046057,Bonpoint
33,Shop & Service,48.86817960104863,L2,2.3095024763176313,Elie Saab
34,Shop & Service,48.87016873271094,L2,2.309292383949897,Galerie Elysées 26
35,Shop & Service,48.870717102301825,L2,2.3066166043281555,Naf Naf
36,Shop & Service,48.86744842667774,L2,2.306965161793806,Versace
37,Shop & Service,48.86996154967553,L2,2.3063676947025775,CIC Paris Champs Elysées
38,Shop & Service,48.87002900141633,L2,2.308426438415025,Biologique Recherche
39,Shop & Service,48.869885011820024,L2,2.30861918878918,Quiksilver
40,Shop & Service,48.87034691338565,L2,2.3068933247917047,Pharmacie du Drugstore des Champs-Élysées
41,Shop & Service,48.86907129302695,L2,2.304489257520188,Berluti
42,Shop & Service,48.87067873933368,L2,2.3052657372735568,Galerie 66
43,Shop & Service,48.870517,L2,2.305609,NIKE STORE Attractive Paris
44,Shop & Service,48.8675882824824,L2,2.30690266190322,Salvatore Ferragamo
45,Shop & Service,48.870065,L2,2.307279,KGA Avocats
46,Shop & Service,48.87142698676081,L2,2.307130306793727,Le Monte Carlo
47,Shop & Service,48.870029,L2,2.304367,Montale Paris
48,Shop & Service,48.86738334084437,L2,2.3070987455466865,Emilio Pucci
49,Shop & Service,48.8671717,L2,2.3071773,Yves Salomon
0,Bus Stop,48.868794,L2,2.309725,"Arrêt Rond-point des Champs-Élysées [28,42,73,80,83,93]"
0,Metro Station,48.86903397893148,L2,2.309929132461548,"Métro Franklin D. Roosevelt [1,9]"
0,Nightlife Spot,48.86983887500616,L2,2.30816251018924,Unisex
1,Nightlife Spot,48.86923790073285,L2,2.307310757068796,Travelers Club
2,Nightlife Spot,48.87008717948269,L2,2.3044006032984248,67 Hookah Lounge
3,Nightlife Spot,48.869467,L2,2.307411,Poom
4,Nightlife Spot,48.869914,L2,2.307421,Bar des éclairs
5,Nightlife Spot,48.87051421645041,L2,2.307080017444817,Diabolo Opening-terrasse MARTINI
6,Nightlife Spot,48.870495309457276,L2,2.307683502596213,Roudoir
7,Nightlife Spot,48.86948347091675,L2,2.308042,La Paiva
8,Nightlife Spot,48.87093960501314,L2,2.3092513150205547,Néo Club
9,Nightlife Spot,48.8712350458255,L2,2.308109213256523,No Comment
10,Nightlife Spot,48.87081085388691,L2,2.309366255513956,Noir Platine
11,Nightlife Spot,48.870817513253826,L2,2.3093168933990387,L'Aristo
12,Nightlife Spot,48.8711774742952,L2,2.3083806427574727,Bar à Shots du No Comment
13,Nightlife Spot,48.87077020353728,L2,2.3092603571023673,Le Barock
14,Nightlife Spot,48.870434,L2,2.307051,Diabolo
15,Nightlife Spot,48.870182037353516,L2,2.3065733909606934,Le petit bistrot
16,Nightlife Spot,48.868509,L2,2.306499,Marignan Bar
17,Nightlife Spot,48.871379,L2,2.307002,Club 101
18,Nightlife Spot,48.869797202562175,L2,2.305476665496826,Ice Bäar
19,Nightlife Spot,48.8713757880788,L2,2.3076085616247437,French love
20,Nightlife Spot,48.87064810351642,L2,2.3078544437885284,Les Champs et les Vignes
21,Nightlife Spot,48.870986239804736,L2,2.3090188110938406,Le Boudoir
22,Nightlife Spot,48.87080771371867,L2,2.308418425968218,Navy Pub
23,Nightlife Spot,48.870785150665306,L2,2.305882398310931,Le Madam
24,Nightlife Spot,48.869550129088054,L2,2.3052693482695146,25ansM6
25,Nightlife Spot,48.86934449651679,L2,2.3052406311035156,Club Royale
26,Nightlife Spot,48.86951525364873,L2,2.30519828132908,Zig Zag Club
27,Nightlife Spot,48.86957002682898,L2,2.305151361092785,Le Cirque Bonheur
28,Nightlife Spot,48.87064153235278,L2,2.3091565357220873,Barock Club
29,Nightlife Spot,48.87065321229276,L2,2.3091339400319106,L'Éden
30,Nightlife Spot,48.869076,L2,2.30473,Gran Cafe Conviviu
31,Nightlife Spot,48.871433066799206,L2,2.307236553748342,Baroche
32,Nightlife Spot,48.87049,L2,2.306553,Digital Beer
33,Nightlife Spot,48.87139642289979,L2,2.306577443550339,Chesterfield
34,Nightlife Spot,48.86967184115084,L2,2.3055391659503166,Pub Élysée
35,Nightlife Spot,48.87033882494138,L2,2.305640016830931,L'Atelier Renault Café
36,Nightlife Spot,48.871253,L2,2.308923,M George
37,Nightlife Spot,48.870679741066326,L2,2.3101427538342563,Bistrot Le Ponthieu
38,Nightlife Spot,48.87005166517039,L2,2.304380751477428,Blaine Bar
39,Nightlife Spot,48.870932211725936,L2,2.308620787396538,L'ambroisie
40,Nightlife Spot,48.869998931884766,L2,2.30437970161438,Kin Club
41,Nightlife Spot,48.87118898388638,L2,2.3067967152834954,Dogstar
42,Nightlife Spot,48.87067120931799,L2,2.3092177111807484,Carré Ponthieu
43,Nightlife Spot,48.86963016114962,L2,2.305339540157658,Le 1515
44,Nightlife Spot,48.870246,L2,2.304417,First Floor
45,Nightlife Spot,48.870749,L2,2.310379,Cafechic
46,Nightlife Spot,48.87055524323106,L2,2.3073961400455274,Terasse 50
47,Nightlife Spot,48.869425,L2,2.304695,World Place à Paris
48,Nightlife Spot,48.870010373028784,L2,2.3043069759720742,Hobo
49,Nightlife Spot,48.87056612513261,L2,2.3050067743645504,Le Milliardaire
0,Arts & Entertainment,48.869763201290155,L2,2.307460210471654,Gaumont Champs-Élysées Marignan
1,Arts & Entertainment,48.86881935570679,L2,2.308619778308503,Caffè Artcurial
2,Arts & Entertainment,48.871351,L2,2.308188,103 Boetie
3,Arts & Entertainment,48.871089,L2,2.307277,103 Boetie: Ascenseur
4,Arts & Entertainment,48.871089,L2,2.307277,103 Boetie: Table Haute
5,Arts & Entertainment,48.86867258377579,L2,2.309016291986066,Artcurial
6,Arts & Entertainment,48.871182,L2,2.307255,103 Boetie: 6eme Etage
7,Arts & Entertainment,48.87081942873134,L2,2.3090171813964844,infosbar
8,Arts & Entertainment,48.87024,L2,2.309464,Galerie Bartoux
9,Arts & Entertainment,48.868937,L2,2.308941,Guy Tard
10,Arts & Entertainment,48.869864,L2,2.307376,Pascoa Em Paris
11,Arts & Entertainment,48.87073956890702,L2,2.3055470557298667,Spot Graffiti
12,Arts & Entertainment,48.86988789765423,L2,2.3082339763641357,The New Layout
13,Arts & Entertainment,48.86966122350046,L2,2.3056421375092353,Club Marbeuf
14,Arts & Entertainment,48.86938,L2,2.309422,Escale Numerique
15,Arts & Entertainment,48.87072843265237,L2,2.308196096059724,Le Nid Aux Loutres
16,Arts & Entertainment,48.86951058,L2,2.3099613189697266,Salle Jean Tardieu
17,Arts & Entertainment,48.870561,L2,2.305672,In De Zeteul!
18,Arts & Entertainment,48.86766815185547,L2,2.3089733123779297,Les Grosses Têtes
0,Food,48.87117613631753,L3,2.3352729273627397,Higuma
1,Food,48.87119472482671,L3,2.335133854635359,McDonald's
2,Food,48.8712410748527,L3,2.3354744713634834,Pizza Pino
3,Food,48.871479252751186,L3,2.3356756567955017,Hanoi Cà Phê
4,Food,48.87115597357292,L3,2.3350499642188454,Noura
5,Food,48.870636299581186,L3,2.3335862159729004,Starbucks Coffee
6,Food,48.870931551344675,L3,2.3337790362255815,Le Grand Café Capucines
7,Food,48.87140773846024,L3,2.336608762951707,La Taverne
8,Food,48.87129336398436,L3,2.3356430509944284,Le Paradis du Fruit
9,Food,48.871396,L3,2.334935,Wild & the Moon
10,Food,48.871206606196615,L3,2.334904873123288,Burger King
11,Food,48.872488378538684,L3,2.3349621891975403,Cojean
12,Food,48.87128928786273,L3,2.3355841884183666,Léon de Bruxelles
13,Food,48.870950181210254,L3,2.3339456242696888,Hippopotamus
14,Food,48.87097567879663,L3,2.334719008096323,Pizza Hut
15,Food,48.87022612741393,L3,2.333923238248245,Mister Garden
16,Food,48.87282269107242,L3,2.335180789232254,Corner Haussmann
17,Food,48.87316229386561,L3,2.3339644074440002,Sofa Café
18,Food,48.86952762490314,L3,2.335676997900009,PeGast
19,Food,48.872423103535276,L3,2.3336371779441833,EXKi
20,Food,48.87294177283379,L3,2.3347583413124084,Starbucks
21,Food,48.87026182709622,L3,2.3354724794626236,Bistro Régent
22,Food,48.86972951715504,L3,2.3358532890001644,La Bombe
23,Food,48.869600319216005,L3,2.3356541991233826,Bistrot d'Edmond
24,Food,48.871417,L3,2.337856,Le Marivaux
25,Food,48.87066742665991,L3,2.336871009961482,Caffé Concerto
26,Food,48.872669,L3,2.334644,Thierry Marx Bakery
27,Food,48.87287385216018,L3,2.3348186910152435,Le Cordial
28,Food,48.86979968358512,L3,2.334637641906738,Corner Café
29,Food,48.87296206080931,L3,2.334228605031967,Le Manoir
30,Food,48.8728676775489,L3,2.3349353671073914,Thai Thai
31,Food,48.87177387724393,L3,2.3333702981472015,Le Patio - La Cantinetta
32,Food,48.871452,L3,2.338112,Merci Jérôme
33,Food,48.87033041641289,L3,2.334836866836576,Mamie Burger Opéra
34,Food,48.870196954066934,L3,2.335725963196314,Entre 2 Rives
35,Food,48.87334223830741,L3,2.3352156579494476,New Balal
36,Food,48.87323903495671,L3,2.3342493921518326,Le Royal
37,Food,48.872017880169984,L3,2.3327276900768688,L'Opéra Restaurant
38,Food,48.87240631833797,L3,2.337615398559271,Brasserie Haussmann
39,Food,48.87255190261385,L3,2.336519643461361,Roof Top Lounge
40,Food,48.87117126521339,L3,2.338289525959788,Les Noces de Jeannette
41,Food,48.871416,L3,2.338371,Le Biz
42,Food,48.87205703268135,L3,2.3351673781871796,Autour du Yangtse
43,Food,48.87328225689871,L3,2.3347020149230957,Gandhi Ji's
44,Food,48.871470587787336,L3,2.3339357138463948,Noon
45,Food,48.86936912261843,L3,2.3346005269022947,Momo
46,Food,48.87335987988451,L3,2.3347462713718414,Midi 12
47,Food,48.86917,L3,2.335503,Il Timo
48,Food,48.86922,L3,2.33446,Restaurant (V)ivre
49,Food,48.869037,L3,2.335486,"L’Entente, Le British Brasserie"
0,Shop & Service,48.87144476000043,L3,2.334847248209234,Le Parfum de l'Opéra
1,Shop & Service,48.872315,L3,2.33332,Apple Opéra
2,Shop & Service,48.87052763572362,L3,2.3342739477694487,BNP Paribas
3,Shop & Service,48.87168743071633,L3,2.333979159593582,Centre iCare
4,Shop & Service,48.870560468631105,L3,2.3346494975846706,BNP Paribas E-communication
5,Shop & Service,48.86997258,L3,2.3353373,Elite Connexion Agence matrimoniale
6,Shop & Service,48.8710241,L3,2.3331701,MAC Cosmetics
7,Shop & Service,48.872729154320886,L3,2.3375988006591797,Rémi Thor / Paris Opéra
8,Shop & Service,48.8695275,L3,2.336104999999975,COPY-TOP Opéra - Bourse
9,Shop & Service,48.8704227,L3,2.3328125000000455,Fidentia développement
10,Shop & Service,48.871108375319544,L3,2.332560807466507,"Swatch Paris Opéra, Paris"
11,Shop & Service,48.86964654,L3,2.33497734,"VIA ""La Plateforme Patrimoniale"" PARIS 2"
12,Shop & Service,48.87257071781385,L3,2.3359615932087143,Paris Look
13,Shop & Service,48.87141799736256,L3,2.3349548506269953,Un Jardin imaginaire
14,Shop & Service,48.8713592853948,L3,2.3326313495635986,Celio*
15,Shop & Service,48.869514,L3,2.336274,Office DEPOT
16,Shop & Service,48.872677146312526,L3,2.3336854577064514,Sephora
17,Shop & Service,48.86974358085254,L3,2.3359603267895888,Copy-Top
18,Shop & Service,48.871920306735646,L3,2.332891523838043,Boutique Orange
19,Shop & Service,48.87104777091022,L3,2.3335628361148073,Burma
20,Shop & Service,48.8726118715554,L3,2.3341119289398193,Sunglass Hut at Galeries Lafayette
21,Shop & Service,48.873052915555334,L3,2.33371764421463,Minelli
22,Shop & Service,48.871374213630965,L3,2.3360393188778206,Librairie Del Duca
23,Shop & Service,48.871444,L3,2.333214,Audemars piguet show room
24,Shop & Service,48.87034848477217,L3,2.3348014529044363,Optic Opéra
25,Shop & Service,48.870544,L3,2.336759,BathBazaar
26,Shop & Service,48.87246544408774,L3,2.335648834705353,Liz & Lorenz
27,Shop & Service,48.87082093474271,L3,2.333203801342695,Okaidi-Obaibi
28,Shop & Service,48.870990655754746,L3,2.332776450365189,Zara
29,Shop & Service,48.870269,L3,2.335222,Hair Feeling
30,Shop & Service,48.87272262573242,L3,2.335313081741333,smuggler
31,Shop & Service,48.871368,L3,2.336138,Credit Lyonnais Capucines
32,Shop & Service,48.870971,L3,2.3346639,LCL Banque Privée
33,Shop & Service,48.87176358363912,L3,2.3364536905929194,Hype and Hairy
34,Shop & Service,48.871741,L3,2.332809,L'Occitane
35,Shop & Service,48.87004233590959,L3,2.3332606545577708,Parrot
36,Shop & Service,48.8715633942556,L3,2.33739719464277,BNP Paribas
37,Shop & Service,48.87055831949693,L3,2.332684993743896,Job4
38,Shop & Service,48.869845,L3,2.333784,Bureau Papa
39,Shop & Service,48.872968955005405,L3,2.334579820526301,HV Associés
40,Shop & Service,48.870851467677404,L3,2.3332687119349034,Bory's
41,Shop & Service,48.87071227133471,L3,2.332398834000608,Opera Vision
42,Shop & Service,48.86990975262838,L3,2.3331505383282636,BNP Paribas
43,Shop & Service,48.8708609289623,L3,2.33232873127824,Lancel
44,Shop & Service,48.872610989463496,L3,2.3343881964683533,Pharmacie Hausmann
45,Shop & Service,48.872807,L3,2.333333,123
46,Shop & Service,48.87314159100798,L3,2.334108413714499,France Chaussures
47,Shop & Service,48.86903344365446,L3,2.3359186922587867,Ultramod
48,Shop & Service,48.86915,L3,2.335267,operaline
49,Shop & Service,48.8711,L3,2.3386445,Santé Et Équilibre
0,Bus Stop,48.87041960864523,L3,2.336238367861654,"Arrêt Opéra – Quatre Septembre [21,27,29,68,81,95]"
1,Bus Stop,48.87136397111085,L3,2.33242967388901,"Arrêt Opéra [20,21,22,27,29,42,52,53,66,68,81,95, N15,N16]"
0,Metro Station,48.871512250437924,L3,2.3375137503307903,"Métro Richelieu—Drouot [8,9]"
1,Metro Station,48.86968926297665,L3,2.33588307211178,Métro Quatre-Septembre [3]
0,Nightlife Spot,48.871277269698176,L3,2.335742822763964,Le Vénitien
1,Nightlife Spot,48.870214,L3,2.3359,Le 7ème B'Art
2,Nightlife Spot,48.87191683128346,L3,2.333513089839203,W Lounge
3,Nightlife Spot,48.87045135843233,L3,2.3340979235838843,Dock
4,Nightlife Spot,48.87180563307371,L3,2.3339295387268066,Murphy's House
5,Nightlife Spot,48.87205157923748,L3,2.336250712591189,Barramundi
6,Nightlife Spot,48.871227,L3,2.335065,Kize
7,Nightlife Spot,48.869725,L3,2.336535,Brasserie des Ducs
8,Nightlife Spot,48.87209925974491,L3,2.333406310772716,Bar Brûlé
9,Nightlife Spot,48.870018,L3,2.334788,La Côte d'Azur
10,Nightlife Spot,48.87295817701704,L3,2.335244640186414,Club Haussmann
11,Nightlife Spot,48.86972951715504,L3,2.3358532890001644,La Bombe
12,Nightlife Spot,48.869600319216005,L3,2.3356541991233826,Bistrot d'Edmond
13,Nightlife Spot,48.87254603258938,L3,2.3368343242280596,Bar Lindbergh
14,Nightlife Spot,48.871416,L3,2.338371,Le Biz
15,Nightlife Spot,48.871713,L3,2.332773,Carlsberg Suite
16,Nightlife Spot,48.8716968847693,L3,2.333466127089082,Le Prélude
17,Nightlife Spot,48.872615366910864,L3,2.3355695057630226,Marriott Ambassador Executive Lounge
18,Nightlife Spot,48.87255190261385,L3,2.336519643461361,Roof Top Lounge
19,Nightlife Spot,48.872577,L3,2.337853,Le Douze
20,Nightlife Spot,48.869406632472725,L3,2.334620934993868,Koba
0,Arts & Entertainment,48.87120027650704,L3,2.335331661507938,UGC Opéra
1,Arts & Entertainment,48.87115110606428,L3,2.3337900638580322,Gaumont Opéra (côté Capucines)
2,Arts & Entertainment,48.87106326661261,L3,2.334583089096678,Gaumont Opéra (côté Français)
3,Arts & Entertainment,48.87168,L3,2.3369064,Maison Dorée
4,Arts & Entertainment,48.87088369209034,L3,2.3354673013229403,OAF - Outsider Art Fair Paris
5,Arts & Entertainment,48.87168631668325,L3,2.3341822284820135,凱旋門
6,Arts & Entertainment,48.87079112389542,L3,2.3342262180577795,Gaumont Opéra (côté Premier)
7,Arts & Entertainment,48.87140182900438,L3,2.3350248932420894,L'atelier Jeannine Gilleta
8,Arts & Entertainment,48.87178919999999,L3,2.336328999999978,Dance Machine Paris
9,Arts & Entertainment,48.87033,L3,2.335538,Présentation Claude Viallat
10,Arts & Entertainment,48.871061,L3,2.334973,À Ciel Ouvert
11,Arts & Entertainment,48.87018067564321,L3,2.3355886879353496,"The Escape Hunt Expérience, Paris, PAR France"
12,Arts & Entertainment,48.870287,L3,2.333338,Flyview
13,Arts & Entertainment,48.871055168294276,L3,2.3324654531044953,Millegale Opera Tango Paris
14,Arts & Entertainment,48.87272742214128,L3,2.337324762943296,Le Clap
15,Arts & Entertainment,48.870764,L3,2.333041,Offenbach Jacques house
16,Arts & Entertainment,48.87300337363287,L3,2.3336468282313407,Boule De Camille
17,Arts & Entertainment,48.87163037911145,L3,2.3375857821176993,Galerie au Bonheur du Jour
18,Arts & Entertainment,48.87076130237536,L3,2.33776124692327,Ader-Nordmann
19,Arts & Entertainment,48.87229222136228,L3,2.3330999778563335,Galerie Dominique Fiat
20,Arts & Entertainment,48.873331375730515,L3,2.336143382976751,LeDiscolab.fr
21,Arts & Entertainment,48.8693,L3,2.334582,r+ Paris I
22,Arts & Entertainment,48.86917540786675,L3,2.334486420741634,Théâtre de la Michodière
23,Arts & Entertainment,48.86960437076936,L3,2.3363975540676187,Le Centorial
24,Arts & Entertainment,48.87078654486068,L3,2.3376820783245478,Opéra Comique
0,Food,48.899067,L4,2.3767073,Ciné Café
1,Food,48.89811755943898,L4,2.3750880360603333,Factory & Co
2,Food,48.89887642998334,L4,2.3774530653494304,Cock Art
3,Food,48.898936,L4,2.378255,Let's Wok
4,Food,48.898842752989616,L4,2.3778862499160947,Les Fromentiers
5,Food,48.897755,L4,2.3760405,Tacos Avenue
6,Food,48.89903346915829,L4,2.3763631972582933,trema
7,Food,48.89805249926997,L4,2.3747965710401107,Basilic Thaï
8,Food,48.898363,L4,2.374202,231 East St.
9,Food,48.89822335637999,L4,2.375045120716095,Fratellini Caffè
10,Food,48.89829,L4,2.3743517,La Cantine Libanaise
11,Food,48.89833543477009,L4,2.3751819133758545,Léon de B!
12,Food,48.899805,L4,2.378904,Cantine BNPP CIB
13,Food,48.89892,L4,2.379614,dormoy gourmet
14,Food,48.898095414002135,L4,2.376524287007747,BNP Paribas - Restaurant
15,Food,48.8983558506311,L4,2.377567944650351,Alto Café - BNP Paribas // Mac 19
16,Food,48.8985186728856,L4,2.377337322770732,korrigan's
17,Food,48.899364,L4,2.377402,cantine burger
18,Food,48.897667,L4,2.3763442,Café Rosa
19,Food,48.897843,L4,2.374327,Thaï Basilic
20,Food,48.89779584,L4,2.37437196,La Croissanterie
0,Shop & Service,48.89827678558329,L4,2.377768116574685,Leroy Merlin
1,Shop & Service,48.899009,L4,2.375489,Maxi Toys
2,Shop & Service,48.89813930032071,L4,2.375123485766028,Le Parks
3,Shop & Service,48.8983754421205,L4,2.3756789543019936,Boulanger
4,Shop & Service,48.898585,L4,2.374409,E. Leclerc Paris XIX
5,Shop & Service,48.898695,L4,2.376508,Aubert
6,Shop & Service,48.899247888627166,L4,2.3775357499869862,Franprix
7,Shop & Service,48.899523283189545,L4,2.3790105948777738,BNP Paribas - Claude Bernard
8,Shop & Service,48.89822591845375,L4,2.3741182740554905,E. Leclerc
9,Shop & Service,48.897939136798946,L4,2.3742136359214783,Saint Algue
10,Shop & Service,48.899078,L4,2.378414,Diagonal
11,Shop & Service,48.8983241,L4,2.37552943,Boulanger
12,Shop & Service,48.899607518843695,L4,2.3788220601533574,pharmacie
13,Shop & Service,48.90072517083177,L4,2.3765202195025257,Bershka
14,Shop & Service,48.89832708,L4,2.37415807,Optical Center Porte D'aubervilliers - Le Parks - 19ème
15,Shop & Service,48.89906,L4,2.3794093,Agence BNP Paribas
0,Arts & Entertainment,48.89928979908116,L4,2.3767912387847896,UGC Ciné Cité Paris 19
1,Arts & Entertainment,48.899619,L4,2.375619,Playground de Porte d'Aubervilliers
0,Food,48.87130499395474,L5,2.3446500363005027,Sunset Boulevard
1,Food,48.87162391888656,L5,2.3433709144592285,Le Brébant
2,Food,48.871721,L5,2.34331,La Crème de Paris
3,Food,48.87036558589393,L5,2.346483859302242,Shine Garden
4,Food,48.871861,L5,2.342989,Bouillon Chartier
5,Food,48.871086,L5,2.34559,Cojean
6,Food,48.87227786117893,L5,2.34589338194235,Bistro de La Banque
7,Food,48.87076261443304,L5,2.3462100327014923,La Croissanterie
8,Food,48.87058159295407,L5,2.3457169481835414,Mamie Burger Grands Boulevards
9,Food,48.8713083038211,L5,2.3443659316115157,Chez Suzette
10,Food,48.87193892730121,L5,2.3460336404385878,Pakito
11,Food,48.871943241436476,L5,2.3416033387184143,Hard Rock Cafe Paris
12,Food,48.87093,L5,2.344911,Restaurant Grands Boulevards
13,Food,48.87027085347852,L5,2.3422034266479526,Mûre
14,Food,48.87086493289484,L5,2.34701999607787,Starbucks Coffee
15,Food,48.871338801621754,L5,2.344196320525814,Corcoran's Irish Pub
16,Food,48.871132051299846,L5,2.3454024360649353,Francesca
17,Food,48.87122520389136,L5,2.34283447265625,De Clercq
18,Food,48.870351,L5,2.342622,Bonpot
19,Food,48.87262174880116,L5,2.3439838446790326,Bien Bien
20,Food,48.87184036598944,L5,2.3429806530475616,Café H
21,Food,48.86976608002102,L5,2.34364401189557,Mr Zhao
22,Food,48.873122,L5,2.343847,Makham Thai
23,Food,48.87215598896774,L5,2.346122265153415,Le Dellac
24,Food,48.870234026652184,L5,2.34259907164373,La Java
25,Food,48.87050890585958,L5,2.34273281220174,King Marcel
26,Food,48.869672,L5,2.343478,Bravo
27,Food,48.871845674555615,L5,2.3431238584161784,Amorino
28,Food,48.87249010804721,L5,2.3450097091162316,Le Royal Bergère
29,Food,48.870727,L5,2.342664,Papadoom Kitchen
30,Food,48.87053917423316,L5,2.342748715983255,Chez Papa
31,Food,48.869697355070116,L5,2.3434486985206604,Jòia
32,Food,48.870611480383154,L5,2.3427660456956776,Le Camion qui Fume
33,Food,48.8725536219218,L5,2.3442068091372965,Bien Bien 2
34,Food,48.87231460691292,L5,2.3431379167784026,Medi-terra-nea
35,Food,48.87156688956905,L5,2.342685753126843,Brioche Dorée
36,Food,48.871975572746514,L5,2.3431841769993706,Mersea
37,Food,48.871265964545785,L5,2.341729628546148,Gyoza Bar
38,Food,48.87134164311225,L5,2.3428773251362145,O'Sullivans
39,Food,48.87028326010677,L5,2.3419982745210834,Baan Lao Thaï
40,Food,48.870985,L5,2.343137,The Frog & Underground
41,Food,48.869535,L5,2.343032,Hawaiian Poké
42,Food,48.86983,L5,2.342907,Ademi
43,Food,48.87173122488815,L5,2.3418529070360306,Café Zéphyr
44,Food,48.872117,L5,2.346385,Le Barlone
45,Food,48.87136313755697,L5,2.341702079509351,Canard & Champagne
46,Food,48.871686977061884,L5,2.3418498217711416,Flam's
47,Food,48.87064620587501,L5,2.341688055061565,Coinstot Vino
48,Food,48.873093433248826,L5,2.3467975553931746,La Régalade Conservatoire
49,Food,48.870236,L5,2.341748,Bao Shelter
0,Shop & Service,48.87128747579668,L5,2.3445739023954637,Franprix
1,Shop & Service,48.870562236131725,L5,2.344391934948521,BricoMac
2,Shop & Service,48.87138108250526,L5,2.3438297550044545,carnaval des affaires
3,Shop & Service,48.870784,L5,2.343632,Octobre Editions
4,Shop & Service,48.871361,L5,2.345529,NOD
5,Shop & Service,48.871829091577375,L5,2.3461107909679413,O… My Hair
6,Shop & Service,48.871002119623924,L5,2.345863823764178,Devred
7,Shop & Service,48.8710558528408,L5,2.345842628988165,Aubert
8,Shop & Service,48.869591497765406,L5,2.345033884048462,L'Appartement Sézane
9,Shop & Service,48.87102412,L5,2.34464806,AXA Assurance EIRL FABIANI ALDO
10,Shop & Service,48.871276,L5,2.345161,T&T by Raffel Pages
11,Shop & Service,48.87207716549802,L5,2.3432259337436485,Carrefour City
12,Shop & Service,48.87245063435488,L5,2.346668390589876,BNP Paribas Investment Partners
13,Shop & Service,48.871199248296556,L5,2.3451286858330085,Boutique SNCF
14,Shop & Service,48.86954386190522,L5,2.3439931869506836,Serrurier Paris 2
15,Shop & Service,48.87048900357393,L5,2.3423755303353517,Hemingbird
16,Shop & Service,48.871333,L5,2.342413,Maisons du Monde
17,Shop & Service,48.872226,L5,2.343285,La Cantine Monoprix
18,Shop & Service,48.87279782800976,L5,2.3431613817334265,Monop'
19,Shop & Service,48.872073,L5,2.341977,Marks & Spencer Food
20,Shop & Service,48.870007868538636,L5,2.3462891578674316,Intervention Soignée
21,Shop & Service,48.8725279,L5,2.3433634,Bio c' Bon
22,Shop & Service,48.869744,L5,2.34518,La Librairie Sézane
23,Shop & Service,48.87112690071312,L5,2.345445797104714,Marionnaud
24,Shop & Service,48.870325437138234,L5,2.3417079448699947,Rapidité et efficacité
25,Shop & Service,48.87083791673888,L5,2.347162349592372,Marks & Spencer Food
26,Shop & Service,48.87191484612391,L5,2.341951512582337,La Cure Gourmande
27,Shop & Service,48.87096090836253,L5,2.3461019314322162,King Of Pop
28,Shop & Service,48.87217087,L5,2.34588953,Esprit de Beauté
29,Shop & Service,48.869963,L5,2.3428,Nail It
30,Shop & Service,48.87141648548116,L5,2.34426162661188,CGA PARTENAIRE
31,Shop & Service,48.872375,L5,2.3429797,Nicolas
32,Shop & Service,48.870299402803354,L5,2.344890983444127,Hammam Boulevard
33,Shop & Service,48.87052,L5,2.345045,Oui Work
34,Shop & Service,48.872196,L5,2.345086,ADD Notaires
35,Shop & Service,48.870636,L5,2.343914,Neptune Store Paris
36,Shop & Service,48.870461,L5,2.345012,Sztark Vintage
37,Shop & Service,48.871155,L5,2.344357,CitySport
38,Shop & Service,48.869517,L5,2.346001,Carlcom
39,Shop & Service,48.87102990122814,L5,2.3469382019010845,Promotion 7
40,Shop & Service,48.8718252219999,L5,2.3444766177210257,Artnuptia
41,Shop & Service,48.87122443847855,L5,2.3457284337879227,Vapostore
42,Shop & Service,48.8701228,L5,2.3425407,Oxygene coiffure
43,Shop & Service,48.870908,L5,2.347636,Showroom Puma
44,Shop & Service,48.87039227886605,L5,2.3426285220208425,Jean-Louis David
45,Shop & Service,48.86991219114497,L5,2.343336548713766,xin-sheng
46,Shop & Service,48.870848,L5,2.34175,Galleries Des Varietes
47,Shop & Service,48.87057853062944,L5,2.3416884771429975,louis pion
48,Shop & Service,48.87185582016585,L5,2.3415606869984553,Hard Rock Shop Paris
49,Shop & Service,48.871447,L5,2.341595,Change Vivienne
0,Bus Stop,48.871418857617755,L5,2.34310216330157,"Arrêt Grands Boulevards [48, 67, 74, 85]"
0,Metro Station,48.87146161051092,L5,2.343285083770752,"Métro Grands Boulevards [8,9]"
0,Nightlife Spot,48.87119145501873,L5,2.344957807845004,James Hetfeeld's Pub
1,Nightlife Spot,48.87130499395474,L5,2.3446500363005027,Sunset Boulevard
2,Nightlife Spot,48.87162391888656,L5,2.3433709144592285,Le Brébant
3,Nightlife Spot,48.870824,L5,2.3449,The Shed
4,Nightlife Spot,48.871943241436476,L5,2.3416033387184143,Hard Rock Cafe Paris
5,Nightlife Spot,48.871469564331164,L5,2.3458265320416034,O'Frenchy
6,Nightlife Spot,48.871091435612676,L5,2.345244372064968,SALSALIANZA _ STUDIO BLEU
7,Nightlife Spot,48.871619012160856,L5,2.3424588461699645,Café Oz
8,Nightlife Spot,48.871807,L5,2.343014,Le Palace/Privilège
9,Nightlife Spot,48.869987,L5,2.345704,Stick'house
10,Nightlife Spot,48.870889998560784,L5,2.342764735221863,Leijonaluola
11,Nightlife Spot,48.870234026652184,L5,2.34259907164373,La Java
12,Nightlife Spot,48.87018086345369,L5,2.3467473408903707,Rivié
13,Nightlife Spot,48.870316,L5,2.34567,Project Club
14,Nightlife Spot,48.872456,L5,2.344372,Sales Gosses
15,Nightlife Spot,48.87035690032652,L5,2.3455853192182627,Immersion
16,Nightlife Spot,48.86977054177128,L5,2.3437028211781152,United Friends Chicha
17,Nightlife Spot,48.87294082152189,L5,2.343049691867996,La Comète
18,Nightlife Spot,48.870578819019705,L5,2.3423777500219605,La Cantine
19,Nightlife Spot,48.87057984411531,L5,2.3457465264913946,Le Safari
20,Nightlife Spot,48.870415,L5,2.345411,Bel'air Club
21,Nightlife Spot,48.871507,L5,2.343966,Le Pulp RIP
22,Nightlife Spot,48.870714369314555,L5,2.345527451406896,Hall Street
23,Nightlife Spot,48.86957258976218,L5,2.343669930442034,UFC - Bagel & Chicha
24,Nightlife Spot,48.87094583902665,L5,2.34669066709378,Le matin
25,Nightlife Spot,48.869813,L5,2.343076,fhcom
26,Nightlife Spot,48.873004961966785,L5,2.3432766806636365,Le Drouot
27,Nightlife Spot,48.87083435711913,L5,2.346718096678568,Almodobar
28,Nightlife Spot,48.87101677442769,L5,2.342986739049274,I.T Place
29,Nightlife Spot,48.87145,L5,2.342838,Yves Remord
30,Nightlife Spot,48.871960359193324,L5,2.343061615680639,Le Privilège
31,Nightlife Spot,48.87020758322095,L5,2.3426636719338405,La Grosse Caisse
32,Nightlife Spot,48.872012045475955,L5,2.346010208129883,Archibon
33,Nightlife Spot,48.870458171012096,L5,2.347539793653017,Magic Garden Agency
34,Nightlife Spot,48.872613,L5,2.343983,L'Académie
35,Nightlife Spot,48.870909,L5,2.342788,Balrock
36,Nightlife Spot,48.872033285268714,L5,2.3432107056285543,Le Longchamps
37,Nightlife Spot,48.87262497029337,L5,2.345109884358746,Cafe Bar 21
38,Nightlife Spot,48.8706945750329,L5,2.3476401765555006,Rex Club
39,Nightlife Spot,48.870078439512724,L5,2.3462891578674316,Le Fou
40,Nightlife Spot,48.872117,L5,2.346385,Le Barlone
41,Nightlife Spot,48.870171,L5,2.346904,Jacques' Bar
42,Nightlife Spot,48.872509641080484,L5,2.3446254156091966,Au Loup
43,Nightlife Spot,48.869675,L5,2.342814,The Alcoholic Room
44,Nightlife Spot,48.87050557695404,L5,2.341730687741995,Sezam Café
45,Nightlife Spot,48.87291889463754,L5,2.3436785379146463,Art France Cocktails
46,Nightlife Spot,48.87047576904297,L5,2.3455328941345215,l'alcool
47,Nightlife Spot,48.87137066350621,L5,2.345839944870036,Le Clipperton
48,Nightlife Spot,48.87064620587501,L5,2.341688055061565,Coinstot Vino
49,Nightlife Spot,48.871143679471125,L5,2.3429211940870704,Le Foot
0,Arts & Entertainment,48.8714865267816,L5,2.3447681286661526,Max Linder Panorama
1,Arts & Entertainment,48.87127747946234,L5,2.3447123075375855,Théâtre des Nouveautés
2,Arts & Entertainment,48.871943241436476,L5,2.3416033387184143,Hard Rock Cafe Paris
3,Arts & Entertainment,48.87171639322788,L5,2.3420072826964895,Musée Grévin
4,Arts & Entertainment,48.870470106609815,L5,2.3476409912109375,Le Grand Rex
5,Arts & Entertainment,48.871182,L5,2.345235,Foret-bleue
6,Arts & Entertainment,48.87150466877767,L5,2.3447631380833855,nuits au max
7,Arts & Entertainment,48.871553,L5,2.343038,Pan Am
8,Arts & Entertainment,48.871177,L5,2.346362900000031,PARIS DANCE SCHOOL
9,Arts & Entertainment,48.871177,L5,2.346362900000031,ACTS / Ecole de danse contemporaine de Paris
10,Arts & Entertainment,48.871091435612676,L5,2.345244372064968,SALSALIANZA _ STUDIO BLEU
11,Arts & Entertainment,48.871928817915986,L5,2.343140615418469,Le Palace
12,Arts & Entertainment,48.870675120472974,L5,2.342448023193043,Café Oscar
13,Arts & Entertainment,48.870578819019705,L5,2.3423777500219605,La Cantine
14,Arts & Entertainment,48.872396640671774,L5,2.3421263694763184,Passage Jouffroy
15,Arts & Entertainment,48.87164378523287,L5,2.3421736685980767,Théâtre des Variétés
16,Arts & Entertainment,48.871283919738666,L5,2.344196614681452,Hotel De Montholon
17,Arts & Entertainment,48.870919,L5,2.34459,Twenifor
18,Arts & Entertainment,48.872393,L5,2.344604,Espace Virginia
19,Arts & Entertainment,48.87020758322095,L5,2.3426636719338405,La Grosse Caisse
20,Arts & Entertainment,48.87054420544544,L5,2.347276210784912,Les Étoiles du Rex
21,Arts & Entertainment,48.871362,L5,2.343466,Théàtre de l'Opprimé
22,Arts & Entertainment,48.870492,L5,2.345007,Nike Training Club
23,Arts & Entertainment,48.870294335243884,L5,2.3464266138466328,Comédie des Boulevards
24,Arts & Entertainment,48.87277699068374,L5,2.343071620376246,Cabinet des Curieux
25,Arts & Entertainment,48.873146,L5,2.345258,Space Invaders
26,Arts & Entertainment,48.87062072753906,L5,2.347522735595703,Galerie Verdeau
27,Arts & Entertainment,48.87215765,L5,2.344265,Trevise Street Gallery
28,Arts & Entertainment,48.871634,L5,2.343063,L.A. Noire
29,Arts & Entertainment,48.8707346316761,L5,2.343143764749171,Studio Bagel
30,Arts & Entertainment,48.871837,L5,2.345844,[Mpz] Geek Zone
31,Arts & Entertainment,48.87048774919968,L5,2.345409393310547,Galerie EOF
32,Arts & Entertainment,48.87110799392811,L5,2.3430269973117115,QG We Are
33,Arts & Entertainment,48.872565,L5,2.344358,Galerie Enora
34,Arts & Entertainment,48.87078,L5,2.343002,Les Coulisses Du Buzz
35,Arts & Entertainment,48.87235145554047,L5,2.3428969477904658,Théâtre du Nord-Ouest
36,Arts & Entertainment,48.869856454621,L5,2.3452858590917445,Studio Bleu
37,Arts & Entertainment,48.871715658170345,L5,2.3424482345581055,Consumer Recreation Services
38,Arts & Entertainment,48.870681,L5,2.342033,Indicium
39,Arts & Entertainment,48.870423,L5,2.342169,Aux Comlectionneurs
40,Arts & Entertainment,48.87039,L5,2.342928,Ground Effect
41,Arts & Entertainment,48.87298781505388,L5,2.3431105801642196,Space Invader
42,Arts & Entertainment,48.873165,L5,2.343552,Oriane Bath
43,Arts & Entertainment,48.87065934923342,L5,2.342068530589486,Speed Load Underground
44,Arts & Entertainment,48.87095670355842,L5,2.3468045955967716,Wagram Label
